results/Michele_simulation_Elevation15deg.csv

Time of Transmission,Satellite SSP Longitude,Satellite SSP Latitude,Path Loss dB,Azimuth Degree,Elevation Degree,Distance to Satellite,Sat Altitude
"2021-04-28 16:50:32.978620,2021,4,28,16,50,32",129.97377840906884,-21.92928150019921,231.37472595380257,,-75.79758415151335,13080.597601469395,709.9490860157593
"2021-04-28 17:26:25.732948,2021,4,28,17,26,25",-51.466344833282704,-26.93676779916456,226.98305891976545,,-31.618455020073547,7889.404690517648,709.9490860157593
"2021-04-28 17:32:00.970128,2021,4,28,17,32,0",-56.075495299912866,-6.825240440394998,224.35540385927916,,-19.210704857583902,5829.905041267213,709.9490860157593
"2021-04-28 17:39:03.415210,2021,4,28,17,39,3",-61.599442303128505,18.541818038566902,218.60432497025866,,-0.759552917380047,3006.820735074645,709.9490860157593
"2021-04-28 17:39:57.205527,2021,4,28,17,39,57",-62.35338284132319,21.76842828324445,217.47835605596822,,-4.384689446056942,2641.2474500031385,709.9490860157593
"2021-04-28 17:52:05.280157,2021,4,28,17,52,5",-80.0145341722398,64.89888799004495,217.933088952072,,-2.913916744714188,2783.20845825345,709.9490860157593
"2021-04-28 17:55:14.361960,2021,4,28,17,55,14",-96.02186213572509,75.22594608131399,221.2275186961598,,-7.754668246010655,4066.9349199701023,709.9490860157593
"2021-04-28 18:06:24.441989,2021,4,28,18,6,24",129.15786725378882,60.5894355670792,227.39865045309983,,-33.99003593749409,8276.063431322062,709.9490860157593
"2021-04-28 18:15:42.491633,2021,4,28,18,15,42",116.31314640476877,27.48524285237209,229.8812828817431,,-52.79646575370869,11014.262737509292,709.9490860157593
"2021-04-28 18:17:25.941428,2021,4,28,18,17,25",114.80220077686866,21.285856850653495,230.19628101532646,,-56.18561139734383,11421.031746885645,709.9490860157593
"2021-04-28 18:19:35.106032,2021,4,28,18,19,35",113.02945475073719,13.53713341673538,230.53839096268732,,-60.38818060023927,11879.846690445214,709.9490860157593
"2021-04-28 18:24:43.525145,2021,4,28,18,24,43",109.0362932931701,-4.980530337765281,231.14788467997664,,-70.29679769304744,12743.406064223911,709.9490860157593
"2021-04-28 18:35:37.520149,2021,4,28,18,35,37",98.99010930675168,-44.12792398290407,231.59834459835008,,-86.08621705938147,13421.730613869944,709.9490860157593
"2021-04-28 18:40:59.733645,2021,4,28,18,40,59",89.20466325242018,-63.06010725592144,231.4301728003707,,-77.52087375681042,13164.365387794125,709.9490860157593
"2021-04-28 18:43:07.367376,2021,4,28,18,43,7",81.44980893095247,-70.26778426946096,231.29172465725077,,-73.56072580353266,12956.196342607553,709.9490860157593
"2021-04-28 18:44:48.221376,2021,4,28,18,44,48",70.60046959252081,-75.58725216424742,231.15248181168946,,-70.39230115285729,12750.152479882148,709.9490860157593
"2021-04-28 18:53:49.463198,2021,4,28,18,53,49",-57.065855799223904,-67.57417870715611,229.91242033641754,,-53.1149149106251,11053.817875358976,709.9490860157593
"2021-04-28 18:54:43.101486,2021,4,28,18,54,43",-60.12146004663283,-64.52897380587787,229.73900323064044,,-51.38181729349804,10835.312705337934,709.9490860157593
"2021-04-28 19:00:29.841937,2021,4,28,19,0,29",-71.12696352172347,-44.188075211194274,228.34876907222477,,-40.05506218869701,9232.721629268908,709.9490860157593
"2021-04-28 19:07:56.503820,2021,4,28,19,7,56",-78.44498287056038,-17.478972702426038,225.65855211942016,,-24.899435999485814,6773.589818098797,709.9490860157593
"2021-04-28 19:26:36.269277,2021,4,28,19,26,36",-95.46684590252052,49.590687716897904,216.09709818572782,,-8.965850567800102,2252.9222141904033,709.9490860157593
"2021-04-28 19:45:54.060766,2021,4,28,19,45,54",103.0486982921473,58.457576483241425,227.7121326299567,,-35.88302477485298,8580.210042788975,709.9490860157593
"2021-04-28 19:57:51.124141,2021,4,28,19,57,51",88.80517188494792,15.757041131510647,230.3281450992256,,-57.7305924682141,11595.741973243072,709.9490860157593
"2021-04-28 20:19:44.900880,2021,4,28,20,19,44",64.84306895339587,-62.608154070595745,231.26117131101626,,-72.81298849197138,12910.701896101744,709.9490860157593
"2021-04-28 20:20:34.541272,2021,4,28,20,20,34",62.38643800684978,-65.454275795857,231.21765537231977,,-71.80318421094748,12846.181584143678,709.9490860157593
"2021-04-28 20:22:44.981837,2021,4,28,20,22,44",52.701499538312525,-72.68337602429509,231.07634286140768,,-68.86927350085821,12638.875360845963,709.9490860157593
"2021-04-28 20:36:36.290413,2021,4,28,20,36,36",-91.74573110349651,-54.04688008987823,229.18123898550616,,-46.372170858314334,10161.392739624182,709.9490860157593
"2021-04-28 20:56:57.334667,2021,4,28,20,56,57",-111.15062555234731,19.015838864434784,222.59492109576144,,-12.486119874465436,4760.333095756143,709.9490860157593
"2021-04-28 21:01:42.377812,2021,4,28,21,1,42",-115.52284764820016,36.08701291900164,221.20157108682838,,-7.667733353249184,4054.8037765381646,709.9490860157593
"2021-04-28 21:10:58.313137,2021,4,28,21,10,58",-133.50036719602008,68.68813974322016,222.63655495809851,,-12.635701864971018,4783.205456914436,709.9490860157593
"2021-04-28 21:27:39.626595,2021,4,28,21,27,39",73.33650170523386,48.29545906665863,228.1497254776308,,-38.69858910779021,9023.552757719113,709.9490860157593
"2021-04-28 21:41:19.656279,2021,4,28,21,41,19",60.493486390560584,-0.7839381415721769,230.37068355327517,,-58.24772062947441,11652.67048544323,709.9490860157593
"2021-04-28 21:55:05.620086,2021,4,28,21,55,5",47.20418466472335,-50.18134911810282,231.01791348394792,,-67.77550056824741,12554.139846961913,709.9490860157593
"2021-04-28 21:59:40.818081,2021,4,28,21,59,40",36.92618153909032,-66.20845187631208,230.9346765438337,,-66.31046005558714,12434.408050105321,709.9490860157593
"2021-04-28 22:19:02.086921,2021,4,28,22,19,2",-121.50867233307602,-41.43722887637953,229.00107994564553,,-44.903746664905576,9952.800187427241,709.9490860157593
"2021-04-28 22:24:39.114426,2021,4,28,22,24,39",-127.00652108517325,-21.282285851069695,227.959452401225,,-37.447687919089,8828.032189096539,709.9490860157593
"2021-04-28 23:12:05.008662,2021,4,28,23,12,5",42.40095658649343,28.474059771249006,228.34168045699127,,-40.00586499437799,9225.18981442735,709.9490860157593
"2021-04-28 23:17:19.920349,2021,4,28,23,17,19",38.00258646249434,9.588465793560466,229.13212775558173,,-45.96551603095333,10104.100930198681,709.9490860157593
"2021-04-29 00:09:49.257659,2021,4,29,0,9,49",-156.71421056195547,1.3579658427488244,228.29372512167998,,-39.674800494843026,9174.397312697636,709.9490860157593
"2021-04-29 00:10:48.429415,2021,4,29,0,10,48",-157.47429373224338,4.912004114445082,228.14327187618744,,-38.65544949633409,9016.850763237431,709.9490860157593
"2021-04-29 00:13:04.201874,2021,4,29,0,13,4",-159.24868215737214,13.065141430584827,227.78549796210388,,-36.340289526405265,8652.989686446937,709.9490860157593
"2021-04-29 00:19:55.981362,2021,4,29,0,19,55",-165.45071461477207,37.73438344081625,226.64067099201728,,-29.769026301211223,7584.4630097287345,709.9490860157593
"2021-04-29 00:27:02.147129,2021,4,29,0,27,2",-177.17631116786256,62.87981626096476,225.5787759841552,,-24.52844990452783,6711.662153363245,709.9490860157593
"2021-04-29 00:30:00.939859,2021,4,29,0,30,0",170.53578268879633,72.87130795934782,225.27187299306098,,-23.131289198362587,6478.656253440608,709.9490860157593
"2021-04-29 00:34:17.920415,2021,4,29,0,34,17",103.79274897598897,81.7781426872707,225.07034285150252,,-22.238367322889392,6330.068803809162,709.9490860157593
"2021-04-29 00:35:34.789153,2021,4,29,0,35,34",74.64329318416257,80.30733895146099,225.0729069415005,,-22.249611642236697,6331.937727167453,709.9490860157593
"2021-04-29 00:37:09.619173,2021,4,29,0,37,9",53.11336358605333,76.36112761554288,225.1168245436302,,-22.442662850073507,6364.034350871629,709.9490860157593
"2021-04-29 00:46:26.613783,2021,4,29,0,46,26",22.525263680869255,44.67615089376971,226.11633530898146,,-27.095887667422687,7140.161802975544,709.9490860157593
"2021-04-29 01:17:09.815452,2021,4,29,1,17,9",-11.572063572507457,-65.24000097176071,230.23835425566696,,-56.669477168033005,11476.487837233135,709.9490860157593
"2021-04-29 01:34:33.905579,2021,4,29,1,34,33",-168.01250299895088,-49.408067171410465,230.56688526969532,,-60.76967127071736,11918.882858659917,709.9490860157593
"2021-04-29 01:40:28.433063,2021,4,29,1,40,28",-174.73190644212917,-28.275221562708523,230.29122857011183,,-57.28947132118128,11546.562654135645,709.9490860157593
"2021-04-29 01:41:20.247594,2021,4,29,1,41,20",-175.51131388718875,-25.171692198936633,230.23351988441573,,-56.613460779488015,11470.102058903773,709.9490860157593
"2021-04-29 01:53:57.705572,2021,4,29,1,53,57",174.39113946728185,20.296193848548295,228.84545694853045,,-43.68428667216903,9776.066236107587,709.9490860157593
"2021-04-29 01:58:59.022029,2021,4,29,1,58,59",169.64260853018405,38.33316198690121,227.99545196125476,,-37.68109191793401,8864.696801137705,709.9490860157593
"2021-04-29 02:09:16.577446,2021,4,29,2,9,16",143.2950980048048,74.05921198775081,225.79948433743834,,-25.563099998393266,6884.390630154932,709.9490860157593
"2021-04-29 02:12:15.421712,2021,4,29,2,12,15",102.15439933613148,81.31350907823632,225.13225677272908,,-22.510706390764195,6375.351387800155,709.9490860157593
"2021-04-29 02:25:16.924704,2021,4,29,2,25,16",-2.1366217436613497,44.836583016362496,223.94078062509027,,-17.543299326773766,5558.150718604739,709.9490860157593
"2021-04-29 02:44:20.898103,2021,4,29,2,44,20",-18.78003628303257,-23.718470267250883,227.95353723908718,,-37.409478722703454,8822.022273348022,709.9490860157593
"2021-04-29 02:45:02.305227,2021,4,29,2,45,2",-19.391352658617304,-26.199006489416412,228.09764694269649,,-38.35191985228876,8969.611545729986,709.9490860157593
"2021-04-29 02:47:05.141621,2021,4,29,2,47,5",-21.322276457007426,-33.5485531587165,228.5064496619985,,-41.16730985643796,9401.85980748812,709.9490860157593
"2021-04-29 02:59:07.806207,2021,4,29,2,59,7",-52.22758177677395,-75.31416437151103,230.2962610586078,,-57.349197695483824,11553.254516786683,709.9490860157593
"2021-04-29 03:19:42.485469,2021,4,29,3,19,42",160.22759143234163,-27.015130875372595,230.95709636991452,,-66.69528994586017,12466.544926596383,709.9490860157593
"2021-04-29 03:25:31.694237,2021,4,29,3,25,31",155.43473453729098,-6.064620007143478,230.5873247874576,,-61.04682541455514,11946.963238473541,709.9490860157593
"2021-04-29 03:28:13.935892,2021,4,29,3,28,13",153.35040945935637,3.6799733585385304,230.32293293631216,,-57.66788760951527,11588.785775484,709.9490860157593
"2021-04-29 03:36:53.723318,2021,4,29,3,36,53",145.95192242140558,34.85062506637513,229.02705188135008,,-45.11155572233034,9982.604887616737,709.9490860157593
"2021-04-29 03:54:58.048156,2021,4,29,3,54,58",3.2869238211842555,76.24439447175881,223.4235057838768,,-15.541041755199453,5236.807104703843,709.9490860157593
"2021-04-29 04:04:16.206591,2021,4,29,4,4,16",-26.993888765882335,44.46370542504273,220.4971068834672,,-5.337210893386589,3738.9239541685533,709.9490860157593
"2021-04-29 04:05:22.729438,2021,4,29,4,5,22",-28.329834030884086,40.50333915956006,220.51235544846108,,-5.387121066922644,3745.4936092701946,709.9490860157593
"2021-04-29 04:29:16.094077,2021,4,29,4,29,16",-49.77382430482254,-45.34649875384886,228.59770465740775,,-41.82728452057649,9501.15757488068,709.9490860157593
"2021-04-29 04:40:15.354027,2021,4,29,4,40,15",-107.68411965777017,-80.85048577290233,230.57028070360144,,-60.81550668051622,11923.54302495215,709.9490860157593
"2021-04-29 04:43:51.596558,2021,4,29,4,43,51",176.8152170480158,-77.80128532020386,230.9561692483473,,-66.67923989629625,12465.214333377993,709.9490860157593
"2021-04-29 04:47:40.605193,2021,4,29,4,47,40",152.64763681160184,-65.70232576335826,231.24045181489566,,-72.32465535593677,12879.941150948505,709.9490860157593
"2021-04-29 04:57:08.780675,2021,4,29,4,57,8",136.86425771334314,-32.20517108661757,231.42032534565712,,-77.19742044083881,13149.449007397821,709.9490860157593
"2021-04-29 05:04:30.600999,2021,4,29,5,4,30",130.6373647139946,-5.710468337386097,231.03890823745525,,-68.16176533574257,12584.521290839533,709.9490860157593
"2021-04-29 05:06:16.518922,2021,4,29,5,6,16",129.27551333963817,0.6511525851833968,230.87507834304267,,-65.31903551476829,12349.38144206395,709.9490860157593
"2021-04-29 05:16:03.198412,2021,4,29,5,16,3",120.94593831204908,35.834592014930294,229.37619386319452,,-48.03714276272189,10392.044101846079,709.9490860157593
"2021-04-29 05:16:30.348910,2021,4,29,5,16,30",120.46800507303824,37.4561845473406,229.27897603524053,,-47.19644610923068,10276.378450132617,709.9490860157593
"2021-04-29 05:17:09.528856,2021,4,29,5,17,9",119.74916152600684,39.794155913442495,229.13364957281067,,-45.97804365682695,10105.871381198063,709.9490860157593
"2021-04-29 05:17:59.494680,2021,4,29,5,17,59",118.7736956015351,42.7715805535267,228.9394099110146,,-44.41531066218277,9882.38532551659,709.9490860157593
"2021-04-29 05:19:46.067482,2021,4,29,5,19,46",116.41051518281466,49.101753120696635,228.48976474548624,,-41.0479602465138,9383.816903178751,709.9490860157593
"2021-04-29 05:25:04.789341,2021,4,29,5,25,4",104.13894045889417,67.64745187241715,226.8078099299731,,-30.660815285683654,7731.820882205198,709.9490860157593
"2021-04-29 05:31:46.650866,2021,4,29,5,31,46",9.637447702715429,81.07272965044476,223.6690354601218,,-16.481334162685528,5386.951443815323,709.9490860157593
"2021-04-29 05:46:57.524294,2021,4,29,5,46,57",-55.86194003881848,30.83977920890619,215.40418895334392,,-11.363438211265352,2080.1791336515694,709.9490860157593
"2021-04-29 05:47:55.410892,2021,4,29,5,47,55",-56.76075538282772,27.374520618346608,216.3723681025061,,-8.03475266457313,2325.4643877545727,709.9490860157593
"2021-04-29 06:19:49.462175,2021,4,29,6,19,49",-148.16568353720783,-81.64655723662821,230.76364975991194,,-63.57367975649428,12191.966929123166,709.9490860157593
"2021-04-29 06:48:45.413537,2021,4,29,6,48,45",101.74689181939937,13.615883908800587,230.52484794871373,,-60.2088002936751,11861.338100902949,709.9490860157593
"2021-04-29 06:58:05.874434,2021,4,29,6,58,5",92.4771261687545,47.13314654839937,228.5690284891357,,-41.618561667608994,9469.841550170719,709.9490860157593
"2021-04-29 07:59:42.344484,2021,4,29,7,59,42",161.83797053001567,-81.5399342709563,230.9930507010536,,-67.3271956015912,12518.255836752953,709.9490860157593
"2021-04-29 08:01:29.302383,2021,4,29,8,1,29",129.06927942706437,-78.1684335795667,231.1639678192223,,-70.63309426008746,12767.024121830613,709.9490860157593
"2021-04-29 08:04:13.519117,2021,4,29,8,4,13",107.96719815701175,-69.8068463743308,231.36532464471952,,-75.52625047269431,13066.447270490416,709.9490860157593
"2021-04-29 08:07:44.020900,2021,4,29,8,7,44",97.2219009613695,-57.762803025700116,231.51987696976033,,-80.99937954008347,13301.025818314432,709.9490860157593
"2021-04-29 08:09:53.968740,2021,4,29,8,9,53",93.40313309652636,-50.116868403671894,231.55897328629482,,-83.04882873208845,13361.03040466539,709.9490860157593
"2021-04-29 08:22:51.636318,2021,4,29,8,22,51",80.74468931341998,-3.607452848536207,230.89440556184553,,-65.63573856284914,12376.89099493105,709.9490860157593
"2021-04-29 08:32:12.450222,2021,4,29,8,32,12",73.10116753503648,30.04720014320657,229.33956891268744,,-47.71790984169195,10348.317229100729,709.9490860157593
"2021-04-29 08:44:21.969798,2021,4,29,8,44,21",47.34495111017405,72.65774219680752,225.2927831122638,,-23.225019526691103,6494.271541390128,709.9490860157593
"2021-04-29 08:46:41.921247,2021,4,29,8,46,41",24.292859413646863,79.3344360798519,224.1150159812736,,-18.236763189945393,5670.770703585905,709.9490860157593
"2021-04-29 08:47:04.020127,2021,4,29,8,47,4",18.148868436428707,80.13451226910496,223.91314721752724,,-17.43423985186467,5540.496040535307,709.9490860157593
"2021-04-29 08:49:05.650334,2021,4,29,8,49,5",-29.334316189356745,81.5811085045129,222.72000395500086,,-12.93667513783856,4829.381184226216,709.9490860157593
"2021-04-29 08:52:11.519027,2021,4,29,8,52,11",-75.72346569514846,74.52251619382831,220.6315026549052,,-5.777832585426332,3797.2257800690445,709.9490860157593
"2021-04-29 09:17:23.062051,2021,4,29,9,17,23",-115.58249875032423,-14.730961294107974,226.83458904824164,,-30.80562073142696,7755.695333596605,709.9490860157593
"2021-04-29 09:41:18.993607,2021,4,29,9,41,18",94.51370161335561,-75.50391791723928,231.23505014248875,,-72.19964471138883,12871.93372780172,709.9490860157593
"2021-04-29 09:42:32.362180,2021,4,29,9,42,32",86.11456264538435,-71.67487717705399,231.2875121407893,,-73.45553980126532,12949.914319692996,709.9490860157593
"2021-04-29 09:44:46.127495,2021,4,29,9,44,46",77.09263516983094,-64.18943773499453,231.34826630459537,,-75.04687036729213,13040.811073856306,709.9490860157593
"2021-04-29 10:16:55.198363,2021,4,29,10,16,55",41.491986477760655,50.88330563712142,226.803575508612,,-30.637967544493964,7728.05249350276,709.9490860157593
"2021-04-29 10:32:02.962153,2021,4,29,10,32,2",-106.64956063379061,71.43124477383468,221.0395051925137,,-7.126666303406366,3979.8485678109973,709.9490860157593
"2021-04-29 10:39:33.981877,2021,4,29,10,39,33",-125.56822243684111,45.31153117276267,222.10962833310697,,-10.769114892311482,4501.660144959374,709.9490860157593
"2021-04-29 11:04:13.843995,2021,4,29,11,4,13",-147.93049517990127,-43.308048307557115,229.8816502952809,,-52.80020409041711,11014.728651192114,709.9490860157593
"2021-04-29 11:11:45.035055,2021,4,29,11,11,45",-164.7929553860765,-69.58130977120666,230.7780639451682,,-63.79226693574474,12212.216227178527,709.9490860157593
"2021-04-29 11:20:53.652731,2021,4,29,11,20,53",64.57995381925758,-73.36725511435817,231.1524811356216,,-70.39228707167565,12750.151487471685,709.9490860157593
"2021-04-29 11:32:12.580300,2021,4,29,11,32,12",38.44611015805981,-33.893688041945595,230.59839164391062,,-61.1981449173243,11962.194791893282,709.9490860157593
"2021-04-29 11:47:09.361717,2021,4,29,11,47,9",26.154518481800434,19.912299152600422,227.95883899044367,,-37.4437237186872,8827.408762005276,709.9490860157593
"2021-04-29 11:50:09.837018,2021,4,29,11,50,9",23.481490039981317,30.727677639652722,227.1198666654793,,-32.382969034893165,8014.651103467741,709.9490860157593
"2021-04-29 12:02:36.926502,2021,4,29,12,2,36",-5.303214875724584,74.17804897709232,222.98628552218503,,-13.907837188546454,4979.727340358064,709.9490860157593
"2021-04-29 12:11:06.289966,2021,4,29,12,11,6",-132.27267607330162,70.86944875816594,222.61587045165243,,-12.56133910646131,4771.82832269791,709.9490860157593
"2021-04-29 12:17:31.831619,2021,4,29,12,17,31",-149.03331221019835,48.58478954676791,224.59603709741808,,-20.206864794647593,5993.674347267312,709.9490860157593
"2021-04-29 12:21:19.200088,2021,4,29,12,21,19",-153.58704258332108,35.047178287637955,225.91580122963543,,-26.11907932263685,6977.20284898027,709.9490860157593
"2021-04-29 12:58:24.336443,2021,4,29,12,58,24",51.72836648094127,-77.45364724209348,231.02478434999853,,-67.90111482836795,12564.074573564798,709.9490860157593
"2021-04-29 13:04:11.646518,2021,4,29,13,4,11",23.463330728453847,-58.4290850905564,230.66301489783265,,-62.10021282153,12051.525745093035,709.9490860157593
"2021-04-29 13:31:13.851764,2021,4,29,13,31,13",-3.468300859771835,38.55790673828671,224.22625104790956,,-18.684892618788414,5743.859926385057,709.9490860157593
"2021-04-29 13:39:27.896576,2021,4,29,13,39,27",-19.340918484209098,67.53838830699091,221.7815920680388,,-9.633639688060606,4334.818232560971,709.9490860157593
"2021-04-29 13:46:01.501786,2021,4,29,13,46,1",-110.1606253921319,81.29705491949053,222.62455960385623,,-12.592565960006732,4776.604331902593,709.9490860157593
"2021-04-29 13:55:43.070632,2021,4,29,13,55,43",-172.71331574872966,51.05677803015615,226.19287250967042,,-27.4750469063477,7203.356575599353,709.9490860157593
"2021-04-29 14:02:52.438280,2021,4,29,14,2,52",179.15683109036078,25.459051316894268,228.33248120580544,,-39.94211983710664,9215.424560960397,709.9490860157593
"2021-04-29 14:04:39.164516,2021,4,29,14,4,39",177.63013552391098,19.06094335973156,228.76069703298393,,-43.03779334917691,9681.131954348148,709.9490860157593
"2021-04-29 14:16:42.233015,2021,4,29,14,16,42",168.02241778152512,-24.33311558484729,230.71280402333142,,-62.81811305948873,12120.805692125263,709.9490860157593
"2021-04-29 14:19:47.581020,2021,4,29,14,19,47",165.10357563418546,-35.42224537813524,230.97725461383413,,-67.04726378918151,12495.510928109587,709.9490860157593
"2021-04-29 14:21:40.931518,2021,4,29,14,21,40",163.01118969216992,-42.18137816249734,231.095856307727,,-69.24829403894825,12667.30137903442,709.9490860157593
"2021-04-29 14:29:07.574281,2021,4,29,14,29,7",147.43995954252355,-68.27403891574417,231.25486629277384,,-72.66286558680187,12901.333520850972,709.9490860157593
"2021-04-29 14:29:30.565876,2021,4,29,14,29,30",145.80464508514075,-69.55409811504022,231.24985129542966,,-72.54442055107518,12893.88679039792,709.9490860157593
"2021-04-29 14:38:14.163038,2021,4,29,14,38,14",18.16626393419505,-74.68980856614168,230.77618044295917,,-63.76358990413476,12209.568341531816,709.9490860157593
"2021-04-29 14:45:11.244866,2021,4,29,14,45,11",-5.104739480675034,-50.98982245879055,229.86413460391572,,-52.62249180071101,10992.53907736845,709.9490860157593
"2021-04-29 14:46:34.766331,2021,4,29,14,46,34",-7.104006242310385,-46.04195405803721,229.61670780982917,,-50.214969119393636,10683.822853772934,709.9490860157593
"2021-04-29 14:48:49.851625,2021,4,29,14,48,49",-9.798419119827164,-37.99958901964855,229.16528720292243,,-46.23954580305102,10142.748296405449,709.9490860157593
"2021-04-29 14:51:00.276136,2021,4,29,14,51,0",-11.997787622738818,-30.20497273566438,228.6648017293204,,-42.3205475803355,9574.836670876448,709.9490860157593
"2021-04-29 15:07:13.506045,2021,4,29,15,7,13",-25.30092688892641,28.192136796918295,222.2710362126368,,-11.334978983400822,4586.0955469706,709.9490860157593
"2021-04-29 15:18:42.217880,2021,4,29,15,18,42",-45.485704139011816,68.73309531368993,219.93431215722833,,-3.5078728267841632,3504.3453250485322,709.9490860157593
"2021-04-29 15:22:15.326864,2021,4,29,15,22,15",-74.94649431499866,79.38714982271928,221.76927673247147,,-9.59136835444455,4328.6764422160895,709.9490860157593
"2021-04-29 15:24:27.811709,2021,4,29,15,24,27",-124.12740245421605,81.69412317652417,222.98571430606916,,-13.905735686579025,4979.399865902657,709.9490860157593
"2021-04-29 15:34:51.402976,2021,4,29,15,34,51",162.17391686533162,50.15074083552015,227.46876249925333,,-34.40518449877154,8343.137727714071,709.9490860157593
"2021-04-29 15:45:38.848049,2021,4,29,15,45,38",151.20360134838018,11.459967074908802,230.078813755474,,-54.87602303529022,11267.614389405933,709.9490860157593
"2021-04-29 15:54:19.198421,2021,4,29,15,54,19",144.3854675414006,-19.775039478749488,231.14654034859356,,-70.2689621378225,12741.433896057513,709.9490860157593
"2021-04-29 16:17:48.974132,2021,4,29,16,17,48",-11.2880609548923,-72.50400719097968,230.45873856704654,,-59.35025009775791,11771.402676730293,709.9490860157593
"2021-04-29 16:21:43.062746,2021,4,29,16,21,43",-25.44697177335648,-59.280725374462776,229.8021690377002,,-52.001903674145055,10914.396826742159,709.9490860157593
"2021-04-29 16:39:54.489343,2021,4,29,16,39,54",-44.88795667648285,5.870848504753657,223.01932526751315,,-14.029527641309015,4998.705504725242,709.9490860157593
"2021-04-29 17:12:23.431859,2021,4,29,17,12,23",139.69378366163605,54.92735627940734,227.72801170204025,,-35.98151707598107,8595.910263944792,709.9490860157593
"2021-04-29 17:16:11.179939,2021,4,29,17,16,11",134.20412455303062,41.434590777893696,228.8506684618275,,-43.72443289197607,9781.933612822331,709.9490860157593
"2021-04-29 17:17:54.281342,2021,4,29,17,17,54",132.3185569124212,35.283099730169624,229.2768049970863,,-47.17791342261453,10273.8101902743,709.9490860157593
"2021-04-29 17:41:09.765491,2021,4,29,17,41,9",111.3384423258422,-48.28789504445771,231.6039567130253,,-86.7431353795969,13430.405445572673,709.9490860157593
"2021-04-29 17:48:33.895809,2021,4,29,17,48,33",89.19619220969962,-73.72579901512758,231.2591986915538,,-72.76587354490296,12907.770128469918,709.9490860157593
"2021-04-29 17:58:56.084554,2021,4,29,17,58,56",-45.7367648342966,-65.05300610990572,229.8476352613367,,-52.45602666150966,10971.677942400116,709.9490860157593
"2021-04-29 18:04:48.965836,2021,4,29,18,4,48",-57.153872780339704,-44.36777512714794,228.43386037267433,,-40.650964871644504,9323.61445700334,709.9490860157593
"2021-04-29 18:16:28.229602,2021,4,29,18,16,28",-67.81997718039392,-2.494184497021797,223.33149349837436,,-15.193098411630823,5181.624802911121,709.9490860157593
"2021-04-29 18:21:32.216252,2021,4,29,18,21,32",-71.77923411968875,15.761025766219063,219.0604688745434,,-0.7002917488164303,3168.9452191189416,709.9490860157593
"2021-04-29 18:29:08.203064,2021,4,29,18,29,8",-79.08798449360475,43.04755549160941,208.97199458132062,,-42.66657289018468,991.9528214402511,709.9490860157593
"2021-04-29 18:50:06.841923,2021,4,29,18,50,6",117.30059013770698,59.00324417318853,227.65098907772114,,-35.50619334410282,8520.022503692915,709.9490860157593
"2021-04-29 19:14:41.690646,2021,4,29,19,14,41",92.65279529269586,-29.149053435221163,231.50209354450237,,-80.20939395172209,13273.821256588108,709.9490860157593
"2021-04-29 19:16:00.297742,2021,4,29,19,16,0",91.38630344991668,-33.850076504078814,231.53035776467294,,-81.499720735855,13317.085136337819,709.9490860157593
"2021-04-29 19:24:46.150796,2021,4,29,19,24,46",76.85491916098186,-64.85253897780217,231.33927772244854,,-74.80054420326944,13027.322787021258,709.9490860157593
"2021-04-29 19:25:30.152699,2021,4,29,19,25,30",74.34380404098546,-67.34996640097766,231.29305125683643,,-73.59399605376838,12958.175299055767,709.9490860157593
"2021-04-29 20:00:18.857809,2021,4,29,20,0,18",-96.41136274063786,15.378826780255416,221.2121198046671,,-7.70306528401429,4059.7311894339505,709.9490860157593
"2021-04-29 20:04:58.051118,2021,4,29,20,4,58",-100.49789739309512,32.11403494586808,218.6848542672641,,-0.5017803375341529,3034.8274341630417,709.9490860157593
"2021-04-29 20:14:03.477471,2021,4,29,20,14,3",-115.03590544214438,64.32959537586657,220.8460246915686,,-6.484796836687688,3892.176467657943,709.9490860157593
"2021-04-29 20:22:02.513739,2021,4,29,20,22,2",140.66132036417565,80.56748204049497,225.06936790526134,,-22.23409265775856,6329.358326161083,709.9490860157593
"2021-04-29 20:28:53.385552,2021,4,29,20,28,53",92.81836208877458,59.380097041958535,227.5577087872763,,-34.93854725296585,8429.013071606261,709.9490860157593
"2021-04-29 20:48:08.742654,2021,4,29,20,48,8",72.50501944096705,-9.606002975286248,230.91035892189007,,-65.90057468472557,12399.644500718601,709.9490860157593
"2021-04-29 21:16:07.395311,2021,4,29,21,16,7",-93.20693594312156,-67.02416465189538,229.9244682926527,,-53.23902979906165,11069.160957595952,709.9490860157593
"2021-04-29 21:28:32.697274,2021,4,29,21,28,32",-112.68784881164606,-22.99442567882725,227.40131153180923,,-34.005709451943765,8278.59934083367,709.9490860157593
"2021-04-29 21:30:06.266632,2021,4,29,21,30,6",-114.00054681729937,-17.382750776274605,226.9834287431973,,-31.620501272920944,7889.740608765986,709.9490860157593
"2021-04-29 21:44:55.359926,2021,4,29,21,44,55",-126.29719677443386,35.958277462970784,222.8857135215024,,-13.539060211467195,4922.400702348742,709.9490860157593
"2021-04-29 22:09:49.979789,2021,4,29,22,9,49",64.16928796100963,52.128103934698416,227.60458892087607,,-35.222751261976114,8474.62976395333,709.9490860157593
"2021-04-29 22:17:11.437394,2021,4,29,22,17,11",55.64258035067553,25.821612438034332,229.04817706763782,,-45.28152440018835,10006.913398721515,709.9490860157593
"2021-04-29 22:25:14.667168,2021,4,29,22,25,14",49.17004549626647,-3.1768665936506384,230.10139656458287,,-55.123271574451586,11296.947648940983,709.9490860157593
"2021-04-29 22:39:12.484774,2021,4,29,22,39,12",35.00904401064208,-53.23278244006008,230.81583804656313,,-64.37486930292377,12265.441637086324,709.9490860157593
"2021-04-29 22:39:33.736020,2021,4,29,22,39,33",34.39245113182418,-54.48352452972582,230.81742778740164,,-64.39970855185564,12267.686733304621,709.9490860157593
"2021-04-29 22:50:37.867071,2021,4,29,22,50,37",-81.24468427299125,-80.07129509438944,230.47952441436675,,-59.617213449261556,11799.606071870763,709.9490860157593
"2021-04-29 22:52:45.554687,2021,4,29,22,52,45",-106.2335433957767,-74.36504782025206,230.32985908684904,,-57.75124347211225,11598.030388149069,709.9490860157593
"2021-04-29 23:07:57.292981,2021,4,29,23,7,57",-137.8604119687478,-21.10068746950687,228.48873560640422,,-41.04061179066863,9382.705136736404,709.9490860157593
"2021-04-29 23:10:54.535684,2021,4,29,23,10,54",-140.26165336238364,-10.464727218570275,227.9863684248285,,-37.622058040433544,8855.431117398728,709.9490860157593
"2021-04-29 23:16:10.074012,2021,4,29,23,16,10",-144.3375528130276,8.486135636135863,227.01647426222777,,-31.8037853179489,7919.8143456383295,709.9490860157593
"2021-04-29 23:48:19.767494,2021,4,29,23,48,19",40.09513466546904,53.49746904450145,226.5398063797211,,-29.240547735652196,7496.8980849373565,709.9490860157593
"2021-04-29 23:53:49.696611,2021,4,29,23,53,49",33.0410090899998,33.88617090969374,227.51470414163555,,-34.67972375773229,8387.383386940033,709.9490860157593
"2021-04-29 23:56:35.412384,2021,4,29,23,56,35",30.466694735427833,23.96618822375823,227.97627635320686,,-37.55658120219967,8845.14803185041,709.9490860157593
"2021-04-30 00:16:48.940889,2021,4,30,0,16,48",12.285666712272038,-48.710280812631275,230.22422422724802,,-56.50605923436437,11457.833298006495,709.9490860157593
"2021-04-30 01:25:26.689060,2021,4,30,1,25,26",18.874171212558313,59.713474780513316,224.865544081425,,-21.34959144125999,6182.562167894136,709.9490860157593
"2021-04-30 01:29:26.863081,2021,4,30,1,29,26",12.035707324876777,45.561469904322095,225.24801538235516,,-23.024599641437902,6460.885686860629,709.9490860157593
"2021-04-30 02:25:17.939922,2021,4,30,2,25,17",173.06157777108066,-22.621994383998164,230.5311506433214,,-60.292128099209485,11869.948102253158,709.9490860157593
"2021-04-30 03:03:30.257253,2021,4,30,3,3,30",-3.798933129240792,62.57937299525053,223.008605902986,,-13.990016914310429,4992.540345068952,709.9490860157593
"2021-04-30 03:14:49.177071,2021,4,30,3,14,49",-19.375651475102863,22.303189548537,223.73082678375977,,-16.72078951622754,5425.410794816898,709.9490860157593
"2021-04-30 04:00:45.596884,2021,4,30,4,0,45",151.52683946812894,-34.91474178506678,231.2354446278648,,-72.2087431535824,12872.518343211255,709.9490860157593
"2021-04-30 04:27:55.478822,2021,4,30,4,27,55",122.92545946206658,62.42857836928353,227.28910641918114,,-33.350414753388165,8172.343430715208,709.9490860157593
"2021-04-30 04:28:33.759670,2021,4,30,4,28,33",121.0950727236801,64.62951705832494,227.08560484244967,,-32.19006840015334,7983.099276048462,709.9490860157593
"2021-04-30 05:05:01.469055,2021,4,30,5,5,1",-53.077228815043725,-18.466751603059947,226.0155047010524,,-26.60178377321663,7057.754100642096,709.9490860157593
"2021-04-30 05:05:08.576499,2021,4,30,5,5,8",-53.174970617205865,-18.89299096523635,226.0628507497977,,-26.833040214217696,7096.33036292454,709.9490860157593
"2021-04-30 05:13:53.445004,2021,4,30,5,13,53",-62.50714617851465,-50.21756501016327,228.82895266826955,,-43.557454518665104,9757.508120467497,709.9490860157593
"2021-04-30 05:19:23.088146,2021,4,30,5,19,23",-76.34438821919508,-69.30031892725604,229.97875066527993,,-53.80462265952815,11138.554168565319,709.9490860157593
"2021-04-30 05:21:38.468016,2021,4,30,5,21,38",-91.12703244720043,-76.42003843401775,230.34713242386144,,-57.96022300460076,11621.117950789838,709.9490860157593
"2021-04-30 05:50:52.256682,2021,4,30,5,50,52",117.42623922716459,5.491949920089393,230.81807164254604,,-64.40977614237337,12268.596128461384,709.9490860157593
"2021-04-30 05:56:05.481337,2021,4,30,5,56,5",113.18473050977123,24.290952588570143,230.05647347828625,,-54.63345185201258,11238.671103217403,709.9490860157593
"2021-04-30 06:05:54.567906,2021,4,30,6,5,54",100.40583998741589,59.30005150128587,227.62317489256057,,-35.33602771985202,8492.78309929663,709.9490860157593
"2021-04-30 06:06:51.943988,2021,4,30,6,6,51",98.05151438566122,62.6280601075839,227.29351854658728,,-33.37596888578608,8176.495749179936,709.9490860157593
"2021-04-30 06:35:15.829645,2021,4,30,6,35,15",-71.01766845758242,12.667146135423527,219.95308298882713,,-3.568538263435652,3511.926656037068,709.9490860157593
"2021-04-30 06:38:33.832072,2021,4,30,6,38,33",-73.58766980023708,0.779486110387466,222.71124939945616,,-12.90502686183991,4824.516076784063,709.9490860157593
"2021-04-30 06:54:39.604213,2021,4,30,6,54,39",-90.49501138785806,-56.87839230308427,229.3450572364448,,-47.7655510402518,10354.858051612906,709.9490860157593
"2021-04-30 07:00:35.646409,2021,4,30,7,0,35",-116.52849299692011,-76.61988733232492,230.47170589954015,,-59.51648297323584,11788.989555895601,709.9490860157593
"2021-04-30 07:11:11.135955,2021,4,30,7,11,11",113.20077592416592,-60.967583511347634,231.49942306119257,,-80.09627452545674,13269.740837543513,709.9490860157593
"2021-04-30 07:39:03.218042,2021,4,30,7,39,3",84.48505219598887,38.93181151161557,229.03122400958756,,-45.1450565697092,9987.401024076953,709.9490860157593
"2021-04-30 07:44:24.681146,2021,4,30,7,44,24",76.51330273190943,57.96365018361394,227.43471126763706,,-34.20298759720766,8310.494211863184,709.9490860157593
"2021-04-30 08:06:36.391117,2021,4,30,8,6,36",-88.82184593237037,39.75851258511267,213.8547114875385,,-17.102064103046626,1740.3109883935545,709.9490860157593
"2021-04-30 08:09:32.065220,2021,4,30,8,9,32",-91.81139323384878,29.261003957482572,217.2405646717435,,-5.159430547390771,2569.919510818379,709.9490860157593
"2021-04-30 08:24:16.374635,2021,4,30,8,24,16",-103.7750591010284,-23.795113286714113,227.09502491839427,,-32.243008273240136,7991.761853894209,709.9490860157593
"2021-04-30 08:35:01.138981,2021,4,30,8,35,1",-118.57431641859567,-62.03042865562267,229.94921197967997,,-53.49553461402829,11100.7388796558,709.9490860157593
"2021-04-30 08:37:02.564468,2021,4,30,8,37,2",-125.31057281855352,-68.93647315512577,230.29324683601806,,-57.31340916764761,11549.245941904554,709.9490860157593
"2021-04-30 08:43:32.365975,2021,4,30,8,43,32",137.94692891473173,-80.79766626034058,231.0832454432982,,-69.0025131588059,12648.923329412104,709.9490860157593
"2021-04-30 08:47:45.209033,2021,4,30,8,47,45",95.93402348454721,-68.89006653474932,231.36649275431435,,-75.55967783977701,13068.204611352792,709.9490860157593
"2021-04-30 09:06:40.083884,2021,4,30,9,6,40",69.50270053966342,-1.6071790249296123,230.62288826402082,,-61.536315725530436,11995.979120287106,709.9490860157593
"2021-04-30 09:06:44.790221,2021,4,30,9,6,44",69.44524877057621,-1.3244945764858316,230.6127484535134,,-61.3957924838442,11981.983319165402,709.9490860157593
"2021-04-30 09:16:12.541183,2021,4,30,9,16,12",61.56778995180568,32.73717510012439,228.85824795944626,,-43.78290389250702,9790.473267832538,709.9490860157593
"2021-04-30 09:16:32.454436,2021,4,30,9,16,32",61.237301673495566,33.928028876146556,228.77562937920922,,-43.15081787036286,9697.789585673028,709.9490860157593
"2021-04-30 09:17:22.696040,2021,4,30,9,17,22",60.37303960622095,36.93025131447565,228.55999249946836,,-41.55304706010147,9459.995132568714,709.9490860157593
"2021-04-30 09:18:48.442919,2021,4,30,9,18,48",58.76495308611113,42.0447071247372,228.16695906247725,,-38.814040611482945,9041.474069376278,709.9490860157593
"2021-04-30 09:40:58.920475,2021,4,30,9,40,58",-107.05959939109849,55.78542263378188,219.09428693106102,,-0.8085570684098756,3181.3073915244804,709.9490860157593
"2021-04-30 09:44:38.245716,2021,4,30,9,44,38",-112.54486108465441,42.80613354492328,220.0995816107407,,-4.04274583378706,3571.6621257567135,709.9490860157593
"2021-04-30 10:14:53.275511,2021,4,30,10,14,53",-146.16454481207546,-65.42445650528504,230.4663173135694,,-59.44727928435301,11781.67812491934,709.9490860157593
"2021-04-30 10:25:14.256255,2021,4,30,10,25,14",78.65815684612745,-73.44865555290586,231.22610748914153,,-71.99468173958323,12858.688106412686,709.9490860157593
"2021-04-30 10:34:16.136400,2021,4,30,10,34,16",54.874661126676564,-42.16249428975259,231.09719224976283,,-69.27451283802841,12669.249835965997,709.9490860157593
"2021-04-30 10:37:21.474868,2021,4,30,10,37,21",51.590375771677635,-31.09790803332809,230.88660101645638,,-65.5073129335338,12365.774963380158,709.9490860157593
"2021-04-30 10:39:40.578369,2021,4,30,10,39,40",49.49070889434086,-22.76656054189921,230.67064453104587,,-62.20888198704875,12062.116383514207,709.9490860157593
"2021-04-30 10:44:26.120146,2021,4,30,10,44,26",45.64380121193411,-5.629712469866294,230.06362080109355,,-54.710841437708936,11247.922828906863,709.9490860157593
"2021-04-30 10:45:15.017277,2021,4,30,10,45,15",45.013753860168826,-2.6929080968807977,229.9364933278427,,-53.363416052631514,11084.496085837603,709.9490860157593
"2021-04-30 11:07:06.752968,2021,4,30,11,7,6",7.653137909872475,74.57434285906852,223.61767319319097,,-16.283171828862418,5355.190784182987,709.9490860157593
"2021-04-30 11:16:36.172745,2021,4,30,11,16,36",-123.24987234971404,67.10058715010832,221.78843594453465,,-9.657141441042963,4338.235113579819,709.9490860157593
"2021-04-30 11:21:08.455682,2021,4,30,11,21,8",-133.9839633414862,51.2778246404255,222.89765460325313,,-13.582717759981607,4929.172514306251,709.9490860157593
"2021-04-30 11:38:03.038601,2021,4,30,11,38,3",-149.948453720835,-9.437855446190833,228.48446991932974,,-41.01016931957888,9378.098371122498,709.9490860157593
"2021-04-30 11:49:55.257429,2021,4,30,11,49,55",-162.16892102126698,-51.97595515503729,230.482610026913,,-59.65707221133397,11803.798558980985,709.9490860157593
"2021-04-30 11:52:55.578188,2021,4,30,11,52,55",-168.38582261251292,-62.51635762181806,230.7595318423692,,-63.511598500640616,12186.188175600613,709.9490860157593
"2021-04-30 12:17:31.288465,2021,4,30,12,17,31",25.681699870126447,-26.499942879097738,230.0061623667143,,-54.094322243877066,11173.761732767633,709.9490860157593
"2021-04-30 12:20:51.162293,2021,4,30,12,20,51",22.86471111379447,-14.513896129390714,229.47136559813623,,-48.88151117961137,10506.536361397993,709.9490860157593
"2021-04-30 12:33:01.502305,2021,4,30,12,33,1",13.037385888672334,29.322553256073903,226.44655321398372,,-28.758198108038517,7416.840655598434,709.9490860157593
"2021-04-30 12:35:00.253661,2021,4,30,12,35,0",11.078827059933714,36.4249352622923,225.79317992049337,,-25.53318116818755,6879.395595281541,709.9490860157593
"2021-04-30 12:39:29.800997,2021,4,30,12,39,29",5.255673521907884,52.44610138246019,224.22080573774463,,-18.6628545266626,5740.2601458028685,709.9490860157593
"2021-04-30 12:50:18.214681,2021,4,30,12,50,18",-94.15621695405645,81.4005993183307,222.35844447082087,,-11.643524360984946,4632.479557499596,709.9490860157593
"2021-04-30 12:57:37.197686,2021,4,30,12,57,37",-154.1520384705711,59.74596108901362,224.37763288174563,,-19.301815266917554,5844.844105095726,709.9490860157593
"2021-04-30 13:18:38.293122,2021,4,30,13,18,38",-176.0240923831165,-15.573704907347139,229.960830834129,,-53.616735020345416,11115.597941662327,709.9490860157593
"2021-04-30 13:19:01.097472,2021,4,30,13,19,1",-176.33419072254648,-16.941724095812848,230.0170915564956,,-54.21061248927617,11187.830185155419,709.9490860157593
"2021-04-30 13:23:20.433241,2021,4,30,13,23,20",179.8379485982883,-32.47612664373182,230.5557365524235,,-60.61974124575917,11903.594267807315,709.9490860157593
"2021-04-30 13:49:46.200104,2021,4,30,13,49,46",8.47516950542751,-50.232682241923115,230.17096050604093,,-55.89829305582791,11387.786419851709,709.9490860157593
"2021-04-30 13:51:49.043981,2021,4,30,13,51,49",5.696611832582106,-42.94303131362862,229.86795652072607,,-52.66118083230405,10997.377017529243,709.9490860157593
"2021-04-30 13:56:45.734808,2021,4,30,13,56,45",0.6441715275038604,-25.215680864945867,228.94055591934404,,-44.42432401864028,9883.68928441169,709.9490860157593
"2021-04-30 14:02:01.060766,2021,4,30,14,2,1",-3.654850946336675,-6.295066424890029,227.61204558470948,,-35.268156288500414,8481.908189123247,709.9490860157593
"2021-04-30 14:04:30.211797,2021,4,30,14,4,30",-5.571581034303749,2.6634243089619973,226.8445360927197,,-30.85954664170615,7764.582211084663,709.9490860157593
"2021-04-30 14:19:27.496610,2021,4,30,14,19,27",-21.389909857969045,56.25246458075252,221.14660747395146,,-7.483867896231521,4029.226314914504,709.9490860157593
"2021-04-30 14:38:21.783169,2021,4,30,14,38,21",177.4677343949542,53.20703976654587,226.57366409071017,,-29.417151039078156,7526.178121266342,709.9490860157593
"2021-04-30 14:38:54.434811,2021,4,30,14,38,54",176.5754332571742,51.28020417413398,226.7613362058327,,-30.41078988975596,7690.562363817326,709.9490860157593
"2021-04-30 14:53:40.841921,2021,4,30,14,53,40",162.27019219224755,-1.7398593944103278,230.2580836579674,,-56.89923491137212,11502.58552018376,709.9490860157593
"2021-04-30 14:59:31.491242,2021,4,30,14,59,31",157.5865128958141,-22.78073619463434,230.94014967336486,,-66.40377785983524,12442.245655071487,709.9490860157593
"2021-04-30 15:17:41.422508,2021,4,30,15,17,41",72.48821880034589,-81.74974808435375,231.04318267927707,,-68.24130814378992,12590.715825234753,709.9490860157593
"2021-04-30 15:28:50.712861,2021,4,30,15,28,50",-16.531423927263386,-49.55217395116907,229.52890054591592,,-49.40279346048036,10576.362198648789,709.9490860157593
"2021-04-30 15:31:50.093413,2021,4,30,15,31,50",-20.340765047866576,-38.8892518713218,228.86561479815506,,-43.839829328064795,9798.780468940748,709.9490860157593
"2021-04-30 15:48:04.280388,2021,4,30,15,48,4",-34.012200601841805,19.53801048979771,222.10898728150195,,-10.766877279573025,4501.3279176236965,709.9490860157593
"2021-04-30 16:04:02.412072,2021,4,30,16,4,2",-68.7317362835212,75.41634830906109,220.84169190488177,,-6.47047069836741,3890.2354154857017,709.9490860157593
"2021-04-30 16:07:23.290529,2021,4,30,16,7,23",-126.5722011876632,81.79335597612028,223.05231389872526,,-14.151301081490889,5017.726468437936,709.9490860157593
"2021-04-30 16:36:55.990454,2021,4,30,16,36,55",134.10681032535493,-17.473836024548536,231.25589324516037,,-72.68722474281317,12902.858964883108,709.9490860157593
"2021-04-30 16:40:43.760674,2021,4,30,16,40,43",130.76434368325744,-31.119004028437676,231.4743400405685,,-79.09168841383182,13231.475896837388,709.9490860157593
"2021-04-30 16:41:17.180619,2021,4,30,16,41,17",130.2191942616224,-33.117274321861665,231.49519451192367,,-79.91978953428017,13263.282305483335,709.9490860157593
"2021-04-30 16:42:02.349850,2021,4,30,16,42,2",129.45607707514972,-35.81585691597045,231.51885157340004,,-80.95193061054097,13299.455683416398,709.9490860157593
"2021-04-30 17:06:39.649323,2021,4,30,17,6,39",-39.55411949082618,-53.33604255571034,229.27504188776575,,-47.162870548653146,10271.724967808997,709.9490860157593
"2021-04-30 17:06:56.094366,2021,4,30,17,6,56",-40.01552593203474,-52.366594698876526,229.2104578246227,,-46.6164677791036,10195.632645580708,709.9490860157593
"2021-04-30 17:26:00.882888,2021,4,30,17,26,0",-57.95594889908079,16.15330820455183,219.62647573922268,,-2.5156191572389828,3382.3229695399286,709.9490860157593
"2021-04-30 17:29:34.957831,2021,4,30,17,29,34",-61.036557766976685,28.988917389800278,214.8844864529731,,-13.222385010038263,1959.366193817315,709.9490860157593
"2021-04-30 18:05:45.142591,2021,4,30,18,5,45",117.31010567268488,18.772860929140872,230.30008829068933,,-57.39470513444918,11558.346307172225,709.9490860157593
"2021-04-30 18:08:02.544968,2021,4,30,18,8,2",115.46539801685708,10.527766466456157,230.64745192780833,,-61.88000344963518,12029.951719444933,709.9490860157593
"2021-04-30 18:12:54.934311,2021,4,30,18,12,54",111.69437261827292,-7.027751175076096,231.19658441436812,,-71.33475076494108,12815.056010615244,709.9490860157593
"2021-04-30 18:14:03.773349,2021,4,30,18,14,3",110.79523567330307,-11.160009295909358,231.2909820831299,,-73.5421330574403,12955.088738750568,709.9490860157593
"2021-04-30 18:18:40.180580,2021,4,30,18,18,40",106.92318131636736,-27.732565006189507,231.54514488402054,,-82.26107219595816,13339.775851168277,709.9490860157593
"2021-04-30 18:22:48.538696,2021,4,30,18,22,48",102.62749700926892,-42.56333135421638,231.60950082023436,,-87.56029964506615,13438.980661144622,709.9490860157593
"2021-04-30 18:40:04.008713,2021,4,30,18,40,4",-47.497526106528774,-72.13666379952656,230.17448261431792,,-55.93808846287577,11392.405077425561,709.9490860157593
"2021-04-30 18:55:55.588966,2021,4,30,18,55,55",-75.64441594049197,-16.17103929521809,225.45620866333238,,-23.964858673591593,6617.618413074375,709.9490860157593
"2021-04-30 19:01:12.333272,2021,4,30,19,1,12",-79.77317574249031,2.8492031275539236,222.43824183355025,,-11.926547114845155,4675.2342910501975,709.9490860157593
"2021-04-30 19:03:33.602664,2021,4,30,19,3,33",-81.60572771494365,11.333401264394901,220.65305505412582,,-5.848650584052543,3806.659579924395,709.9490860157593
"2021-04-30 19:05:26.876439,2021,4,30,19,5,26",-83.12715845877607,18.132713900303948,218.9668627662533,,-0.4006827841799831,3134.977486104061,709.9490860157593
"2021-04-30 19:10:56.210568,2021,4,30,19,10,56",-88.23030756237387,37.85332781645751,213.9792822067817,,-16.616776588486218,1765.449902687654,709.9490860157593
"2021-04-30 19:17:33.677769,2021,4,30,19,17,33",-98.74530981109916,61.336346074348576,218.61680330558085,,-0.7196054380807557,3011.1435025704336,709.9490860157593
"2021-04-30 19:47:41.544028,2021,4,30,19,47,41",90.14432395400455,7.76693944954247,230.657076871325,,-62.01596354936285,12043.289648798023,709.9490860157593
"2021-04-30 19:52:20.108727,2021,4,30,19,52,20",86.55208989350795,-8.958597529356167,231.11236017891153,,-69.57470518022534,12691.39312547812,709.9490860157593
"2021-04-30 19:59:21.503079,2021,4,30,19,59,21",80.47395422406176,-34.210926376850445,231.43130278756695,,-77.5585401620173,13166.078111834137,709.9490860157593
"2021-04-30 20:22:07.670054,2021,4,30,20,22,7",-84.25034222374721,-61.405156464042776,229.5719636842213,,-49.79853882848756,10628.928171715854,709.9490860157593
"2021-04-30 20:32:42.980839,2021,4,30,20,32,42",-98.60649112389028,-23.705114490284636,226.89441721771237,,-31.13110727883406,7809.300754620272,709.9490860157593
"2021-04-30 20:34:16.692240,2021,4,30,20,34,16",-99.92919050888831,-18.085472735218982,226.36961131358152,,-28.364612322291222,7351.430463744382,709.9490860157593
"2021-04-30 20:49:48.968829,2021,4,30,20,49,48",-112.94339491128024,37.83835487015498,220.5687738331418,,-5.571966422812257,3769.9012962045085,709.9490860157593
"2021-04-30 20:52:05.263348,2021,4,30,20,52,5",-115.65789317375403,45.95639966482954,220.5061199528712,,-5.366709130310425,3742.805729418916,709.9490860157593
"2021-04-30 20:52:49.255343,2021,4,30,20,52,49",-116.66938812159033,48.56676755559708,220.58673234447446,,-5.630865696138067,3777.7038189948576,709.9490860157593
"2021-04-30 21:05:03.457022,2021,4,30,21,5,3",134.68916688663623,80.95991883215649,225.07752291556764,,-22.269861527264926,6335.303626266473,709.9490860157593
"2021-04-30 21:11:26.181026,2021,4,30,21,11,26",83.70777962232896,61.83876258198115,227.2120234203307,,-32.90672173193186,8100.138766222623,709.9490860157593
"2021-04-30 21:20:56.478088,2021,4,30,21,20,56",70.11062388739632,28.04376248849661,229.37648602352408,,-48.03970179728948,10392.393656608914,709.9490860157593
"2021-04-30 21:23:31.967540,2021,4,30,21,23,31",67.86085279472552,18.724620572114098,229.7911334015135,,-51.89267524093545,10900.538622879045,709.9490860157593
"2021-04-30 21:29:58.726485,2021,4,30,21,29,58",62.797327496640065,-4.492364689067054,230.55105447580206,,-60.55703314563257,11897.179435932005,709.9490860157593
"2021-04-30 21:33:13.307647,2021,4,30,21,33,13",60.23728967638404,-16.17122433014938,230.80055149263654,,-64.13735892530045,12243.874307843014,709.9490860157593
"2021-04-30 21:33:24.735566,2021,4,30,21,33,24",60.083810479483226,-16.85675486943944,230.8126636044308,,-64.32534854417817,12260.95979098735,709.9490860157593
"2021-04-30 21:42:14.304170,2021,4,30,21,42,14",51.00331611225665,-48.48626757776797,231.0745800872605,,-68.83539022794581,12636.310600868419,709.9490860157593
"2021-04-30 22:01:27.016740,2021,4,30,22,1,27",-110.03295724301114,-59.876661672615505,229.73238616050278,,-51.31756526218455,10827.061308691227,709.9490860157593
"2021-04-30 22:27:17.131164,2021,4,30,22,27,17",-136.20869206661382,32.768096968630275,224.3859347576939,,-19.33588897101819,5850.4332121487905,709.9490860157593
"2021-04-30 22:43:49.424401,2021,4,30,22,43,49",112.51633898801057,81.13017140748401,225.16311571220132,,-22.647095010005803,6398.041806932082,709.9490860157593
"2021-04-30 23:05:08.390754,2021,4,30,23,5,8",40.951614756994324,8.918079983607747,229.29559838819355,,-47.33868363833728,10296.06338162021,709.9490860157593
"2021-04-30 23:20:16.077518,2021,4,30,23,20,16",27.448670517980684,-45.447056962143144,230.53269905479686,,-60.312640225130394,11872.064316360991,709.9490860157593
"2021-04-30 23:48:03.608543,2021,4,30,23,48,3",-145.8210174364729,-32.41071346015058,229.39393207037065,,-48.192874331898295,10413.288279660223,709.9490860157593
"2021-04-30 23:57:04.234987,2021,4,30,23,57,4",-153.3310243052656,0.018491610533461485,228.1630290254762,,-38.7876800485893,9037.384069205335,709.9490860157593
"2021-04-30 23:58:06.565641,2021,4,30,23,58,6",-154.1300578598175,3.7624221449178314,227.99898525572894,,-37.70408055471004,8868.303565323786,709.9490860157593
"2021-05-01 00:02:37.963197,2021,5,1,0,2,37",-158.32527249653518,20.056113912888147,227.29250684810444,,-33.37010781325103,8175.543438368454,709.9490860157593
"2021-05-01 00:04:45.255361,2021,5,1,0,4,45",-160.18043132917472,27.686953364485912,226.93303246519008,,-31.34265446413738,7844.096200273617,709.9490860157593
"2021-05-01 00:07:08.491027,2021,5,1,0,7,8",-162.5076629415943,36.25610750869573,226.5315605195005,,-29.19765702925017,7489.784358855715,709.9490860157593
"2021-05-01 00:07:38.868012,2021,5,1,0,7,38",-163.04713338754075,38.07002290714328,226.44791133711308,,-28.765180745292632,7418.00044127455,709.9490860157593
"2021-05-01 00:11:28.598626,2021,5,1,0,11,28",-168.04963407548695,51.72199335428057,225.8554608642894,,-25.829713306925253,6928.900601132129,709.9490860157593
"2021-05-01 00:16:55.890618,2021,5,1,0,16,55",176.96344670749193,70.58618984738662,225.24177112123306,,-22.996720056619647,6456.242643825791,709.9490860157593
"2021-05-01 00:18:24.059688,2021,5,1,0,18,24",167.5445730961716,75.24600364973449,225.14747603329698,,-22.577917174754077,6386.531956881842,709.9490860157593
"2021-05-01 00:20:12.691725,2021,5,1,0,20,12",145.3103571949853,80.01383181356049,225.08164230928983,,-22.287941027902285,6338.308937249478,709.9490860157593
"2021-05-01 00:32:03.832343,2021,5,1,0,32,3",27.890849883772663,51.791750586842404,225.9800142136633,,-26.429299357415807,7028.974999895512,709.9490860157593
"2021-05-01 00:36:29.734379,2021,5,1,0,36,29",22.236743469996654,35.98421020491159,226.68715810126338,,-30.01502010085439,7625.164074188814,709.9490860157593
"2021-05-01 00:58:21.369231,2021,5,1,0,58,21",3.1362892276208254,-42.61009736307739,229.779370319703,,-51.77666776797136,10885.786289278149,709.9490860157593
"2021-05-01 01:10:19.486518,2021,5,1,1,10,19",-60.34470895197153,-81.16613028822077,230.52439742580262,,-60.20285406393562,11860.722888620903,709.9490860157593
"2021-05-01 01:14:18.206302,2021,5,1,1,14,18",-137.44011524624358,-76.14704723277202,230.60414605292993,,-61.277181086479104,11970.122381495346,709.9490860157593
"2021-05-01 01:48:09.046535,2021,5,1,1,48,9",170.3431991123302,43.861149983469,227.59050862986592,,-35.137164089280915,8460.903065344097,709.9490860157593
"2021-05-01 01:49:13.439003,2021,5,1,1,49,13",168.9280307979688,47.68667057932045,227.38004380917127,,-33.88062618669775,8258.353679821328,709.9490860157593
"2021-05-01 02:02:21.943328,2021,5,1,2,2,21",47.48297279394196,79.72763221761473,224.67821655045807,,-20.552192130609342,6050.6511648779615,709.9490860157593
"2021-05-01 02:11:37.510491,2021,5,1,2,11,37",2.1246019234777127,49.387070470180966,224.10116682603513,,-18.181269050818017,5661.736187809715,709.9490860157593
"2021-05-01 02:20:34.130789,2021,5,1,2,20,34",-7.2144645112757235,17.337023848762605,225.5338742715723,,-24.32109445837963,6677.0557371628465,709.9490860157593
"2021-05-01 02:28:08.294835,2021,5,1,2,28,8",-13.132711905399495,-9.927594215745811,227.2600282551042,,-33.18242963754117,8145.03023394683,709.9490860157593
"2021-05-01 02:31:53.343918,2021,5,1,2,31,53",-16.20633495915271,-23.426490974334705,228.05528282566786,,-38.07233420571366,8925.970131599297,709.9490860157593
"2021-05-01 02:34:50.869696,2021,5,1,2,34,50",-18.954190230413165,-34.05092204825968,228.62402350999923,,-42.019943299926474,9529.990406981115,709.9490860157593
"2021-05-01 02:47:48.074118,2021,5,1,2,47,48",-60.6192500116737,-78.27534079630587,230.4051487030776,,-58.67394676409928,11698.999519222321,709.9490860157593
"2021-05-01 02:54:21.234563,2021,5,1,2,54,21",-170.92226309815962,-72.55567229906725,230.86268065419074,,-65.11819581533523,12331.767290647287,709.9490860157593
"2021-05-01 03:06:03.481931,2021,5,1,3,6,3",163.92083706510664,-31.582133066761426,230.94779574104217,,-66.53481799805071,12453.203212819782,709.9490860157593
"2021-05-01 03:10:24.003223,2021,5,1,3,10,24",160.11211053465178,-15.9690989424508,230.73222336829423,,-63.103907224689394,12147.934913711395,709.9490860157593
"2021-05-01 03:13:33.086813,2021,5,1,3,13,33",157.62668845580575,-4.616491323121759,230.48576577035783,,-59.697898746951054,11808.087875223746,709.9490860157593
"2021-05-01 03:36:06.984785,2021,5,1,3,36,6",118.52869576497008,75.09016397847208,225.93588097658184,,-26.21583188095477,6993.351169771439,709.9490860157593
"2021-05-01 03:40:16.920221,2021,5,1,3,40,16",42.134773241503964,81.37074685026455,224.43074153961484,,-19.52023255785477,5880.691066179979,709.9490860157593
"2021-05-01 03:40:42.928645,2021,5,1,3,40,42",32.63126244736104,80.76224303116783,224.26360155815584,,-18.836339875411664,5768.612489118329,709.9490860157593
"2021-05-01 03:47:56.151507,2021,5,1,3,47,56",-18.040825638239763,58.47122716631748,221.58614054504824,,-8.965623799817564,4238.364615655967,709.9490860157593
"2021-05-01 03:50:02.697249,2021,5,1,3,50,2",-21.89084978176464,51.03292534743616,221.10339710184695,,-7.3395860369974235,4009.231584661766,709.9490860157593
"2021-05-01 04:17:27.739552,2021,5,1,4,17,27",-48.03299455048194,-47.38336387925258,228.76782203094942,,-43.091677438538696,9689.076603346504,709.9490860157593
"2021-05-01 04:59:30.994975,2021,5,1,4,59,30",127.315917626918,20.896132477440503,230.11865084892622,,-55.313593041297636,11319.411033318005,709.9490860157593
